[{"nombre": "MamaDog Grooming & Pet Shop", "latitud": 40.5959636, "longitud": -3.7008224, "location": {"type": "Point", "coordinates": [40.5959636, -3.7008224]}}, {"nombre": "Dog Run", "latitud": 40.446616057544, "longitud": -3.699087331548641, "location": {"type": "Point", "coordinates": [40.446616057544, -3.699087331548641]}}, {"nombre": "Dog Run Parque del Retiro", "latitud": 40.419537478281754, "longitud": -3.681268155735331, "location": {"type": "Point", "coordinates": [40.419537478281754, -3.681268155735331]}}, {"nombre": "Pet A Porter - Dog Run", "latitud": 40.43360896697177, "longitud": -3.6806044545606786, "location": {"type": "Point", "coordinates": [40.43360896697177, -3.6806044545606786]}}, {"nombre": "Peluquer\u00eda canina Rock & Dog", "latitud": 40.4248325, "longitud": -3.6527114, "location": {"type": "Point", "coordinates": [40.4248325, -3.6527114]}}, {"nombre": "Dog & Roll", "latitud": 40.430455, "longitud": -3.7009828, "location": {"type": "Point", "coordinates": [40.430455, -3.7009828]}}, {"nombre": "Mine Dog Gold Mine", "latitud": 40.42790015385648, "longitud": -3.688882291316986, "location": {"type": "Point", "coordinates": [40.42790015385648, -3.688882291316986]}}, {"nombre": "Mine Dog Gold Mine", "latitud": 40.416651, "longitud": -3.707515, "location": {"type": "Point", "coordinates": [40.416651, -3.707515]}}, {"nombre": "Smelly cat&dog", "latitud": 40.42853546142578, "longitud": -3.693767547607422, "location": {"type": "Point", "coordinates": [40.42853546142578, -3.693767547607422]}}, {"nombre": "Dog & Roll Bar Madrid", "latitud": 40.4305474790085, "longitud": -3.700816576540337, "location": {"type": "Point", "coordinates": [40.4305474790085, -3.700816576540337]}}, {"nombre": "Doggy Hot", "latitud": 40.422564, "longitud": -3.697548, "location": {"type": "Point", "coordinates": [40.422564, -3.697548]}}, {"nombre": "D\u00f6ggo", "latitud": 40.433719002062, "longitud": -3.6999784116394, "location": {"type": "Point", "coordinates": [40.433719002062, -3.6999784116394]}}, {"nombre": "Dog & Fox", "latitud": 40.431831, "longitud": -3.714886, "location": {"type": "Point", "coordinates": [40.431831, -3.714886]}}, {"nombre": "rock&dog", "latitud": 40.429386285542414, "longitud": -3.702015686555792, "location": {"type": "Point", "coordinates": [40.429386285542414, -3.702015686555792]}}, {"nombre": "Dog & Pet", "latitud": 40.463405372619135, "longitud": -3.688034442658396, "location": {"type": "Point", "coordinates": [40.463405372619135, -3.688034442658396]}}, {"nombre": "A loja do gato preto", "latitud": 40.424253479384944, "longitud": -3.684206539333076, "location": {"type": "Point", "coordinates": [40.424253479384944, -3.684206539333076]}}, {"nombre": "Dogville", "latitud": 40.41283656874247, "longitud": -3.6974522831884378, "location": {"type": "Point", "coordinates": [40.41283656874247, -3.6974522831884378]}}, {"nombre": "Cl\u00ednica Veterinaria Dog And Cat", "latitud": 40.46356344, "longitud": -3.68876982, "location": {"type": "Point", "coordinates": [40.46356344, -3.68876982]}}, {"nombre": "Parque para perros", "latitud": 40.40898673122803, "longitud": -3.680119514465332, "location": {"type": "Point", "coordinates": [40.40898673122803, -3.680119514465332]}}, {"nombre": "The Dogger Caf\u00e9", "latitud": 40.400375, "longitud": -3.6695623, "location": {"type": "Point", "coordinates": [40.400375, -3.6695623]}}, {"nombre": "Tekkel Hot Dog", "latitud": 40.42247, "longitud": -3.700636, "location": {"type": "Point", "coordinates": [40.42247, -3.700636]}}, {"nombre": "EL DOG DE MAYO", "latitud": 40.426161408, "longitud": -3.702780655, "location": {"type": "Point", "coordinates": [40.426161408, -3.702780655]}}, {"nombre": "Doga", "latitud": 40.430313129, "longitud": -3.64375713, "location": {"type": "Point", "coordinates": [40.430313129, -3.64375713]}}, {"nombre": "Dog Run", "latitud": 40.42543388772903, "longitud": -3.7307879731204014, "location": {"type": "Point", "coordinates": [40.42543388772903, -3.7307879731204014]}}, {"nombre": "Dog Run", "latitud": 40.467693, "longitud": -3.717542, "location": {"type": "Point", "coordinates": [40.467693, -3.717542]}}, {"nombre": "Feltman's Hot Dog", "latitud": 40.41978163347495, "longitud": -3.706110119819641, "location": {"type": "Point", "coordinates": [40.41978163347495, -3.706110119819641]}}, {"nombre": "Feltman's El Hot Dog Gourmet", "latitud": 40.416961, "longitud": -3.700632, "location": {"type": "Point", "coordinates": [40.416961, -3.700632]}}, {"nombre": "Dogma", "latitud": 40.458655, "longitud": -3.680409, "location": {"type": "Point", "coordinates": [40.458655, -3.680409]}}, {"nombre": "Dog Run", "latitud": 40.42127603223327, "longitud": -3.62782554365662, "location": {"type": "Point", "coordinates": [40.42127603223327, -3.62782554365662]}}, {"nombre": "Mr. Hot Dog Madrid", "latitud": 40.433643, "longitud": -3.7133293, "location": {"type": "Point", "coordinates": [40.433643, -3.7133293]}}]