[{"nombre": "MSMK Madrid School of Marketing", "latitud": 40.42908401194077, "longitud": -3.6799125837274125, "location": {"type": "Point", "coordinates": [40.42908401194077, -3.6799125837274125]}}, {"nombre": "IE Business School MM31", "latitud": 40.437736740517586, "longitud": -3.6823604733451045, "location": {"type": "Point", "coordinates": [40.437736740517586, -3.6823604733451045]}}, {"nombre": "ESE European School of Economics Madrid", "latitud": 40.42867047418858, "longitud": -3.684045669191016, "location": {"type": "Point", "coordinates": [40.42867047418858, -3.684045669191016]}}, {"nombre": "AIL Madrid - Spanish School", "latitud": 40.42319986233708, "longitud": -3.68316650390625, "location": {"type": "Point", "coordinates": [40.42319986233708, -3.68316650390625]}}, {"nombre": "IE Business School", "latitud": 40.438783522611864, "longitud": -3.687248275830536, "location": {"type": "Point", "coordinates": [40.438783522611864, -3.687248275830536]}}, {"nombre": "CASH MANAGEMENT IE Business School", "latitud": 40.43905098712942, "longitud": -3.680653984198083, "location": {"type": "Point", "coordinates": [40.43905098712942, -3.680653984198083]}}, {"nombre": "IE Business School MM4", "latitud": 40.43768615467192, "longitud": -3.688397584222651, "location": {"type": "Point", "coordinates": [40.43768615467192, -3.688397584222651]}}, {"nombre": "IE Business School Audiovisual", "latitud": 40.43708478249099, "longitud": -3.6888101456224276, "location": {"type": "Point", "coordinates": [40.43708478249099, -3.6888101456224276]}}, {"nombre": "IE Business School MM6", "latitud": 40.43794105291332, "longitud": -3.6875414226582905, "location": {"type": "Point", "coordinates": [40.43794105291332, -3.6875414226582905]}}, {"nombre": "IE Business School MM4", "latitud": 40.43788007694987, "longitud": -3.6889458936834814, "location": {"type": "Point", "coordinates": [40.43788007694987, -3.6889458936834814]}}, {"nombre": "IE Business School Admon", "latitud": 40.43789340071787, "longitud": -3.6890161003816138, "location": {"type": "Point", "coordinates": [40.43789340071787, -3.6890161003816138]}}, {"nombre": "Biblioteca IE Business School", "latitud": 40.4399364609086, "longitud": -3.6842207600561143, "location": {"type": "Point", "coordinates": [40.4399364609086, -3.6842207600561143]}}, {"nombre": "IE Business School Executive Education", "latitud": 40.43990781079019, "longitud": -3.684222003389036, "location": {"type": "Point", "coordinates": [40.43990781079019, -3.684222003389036]}}, {"nombre": "Old School Skaterock Shop", "latitud": 40.431756973074805, "longitud": -3.701371533015889, "location": {"type": "Point", "coordinates": [40.431756973074805, -3.701371533015889]}}, {"nombre": "Mr Marcel School", "latitud": 40.4261607653941, "longitud": -3.7029175152845326, "location": {"type": "Point", "coordinates": [40.4261607653941, -3.7029175152845326]}}, {"nombre": "The School Agency", "latitud": 40.422837, "longitud": -3.707695, "location": {"type": "Point", "coordinates": [40.422837, -3.707695]}}, {"nombre": "Social & Branded School", "latitud": 40.43027358431179, "longitud": -3.6752109675886624, "location": {"type": "Point", "coordinates": [40.43027358431179, -3.6752109675886624]}}, {"nombre": "Deusto Business School", "latitud": 40.43094848530408, "longitud": -3.681059215078213, "location": {"type": "Point", "coordinates": [40.43094848530408, -3.681059215078213]}}, {"nombre": "Miami Ad School Madrid", "latitud": 40.429106732710444, "longitud": -3.7072348406406963, "location": {"type": "Point", "coordinates": [40.429106732710444, -3.7072348406406963]}}, {"nombre": "ESAME PHARMACEUTICAL BUSINESS SCHOOL", "latitud": 40.4285078, "longitud": -3.684043699999961, "location": {"type": "Point", "coordinates": [40.4285078, -3.684043699999961]}}, {"nombre": "PADDB+ The Valley Digital Business School", "latitud": 40.42916666432297, "longitud": -3.674339346979555, "location": {"type": "Point", "coordinates": [40.42916666432297, -3.674339346979555]}}, {"nombre": "ADM Business School", "latitud": 40.426926, "longitud": -3.683897, "location": {"type": "Point", "coordinates": [40.426926, -3.683897]}}, {"nombre": "ESME Fashion School", "latitud": 40.427272251338, "longitud": -3.6747652506251876, "location": {"type": "Point", "coordinates": [40.427272251338, -3.6747652506251876]}}, {"nombre": "LAE Madrid \u2013 Spanish Language School", "latitud": 40.43002881138844, "longitud": -3.6723084254699643, "location": {"type": "Point", "coordinates": [40.43002881138844, -3.6723084254699643]}}, {"nombre": "Chester School of English", "latitud": 40.42843248428628, "longitud": -3.6705758045831796, "location": {"type": "Point", "coordinates": [40.42843248428628, -3.6705758045831796]}}, {"nombre": "Nuclio Digital School", "latitud": 40.422947, "longitud": -3.682816, "location": {"type": "Point", "coordinates": [40.422947, -3.682816]}}, {"nombre": "ICADE Business School (Universidad Pontificia Comillas)", "latitud": 40.42803976550994, "longitud": -3.715409441410118, "location": {"type": "Point", "coordinates": [40.42803976550994, -3.715409441410118]}}, {"nombre": "IESE Business School", "latitud": 40.45175724700119, "longitud": -3.7577980151038126, "location": {"type": "Point", "coordinates": [40.45175724700119, -3.7577980151038126]}}, {"nombre": "IE Business School - Serrano 99", "latitud": 40.43861478722378, "longitud": -3.686775867488198, "location": {"type": "Point", "coordinates": [40.43861478722378, -3.686775867488198]}}, {"nombre": "EUSchool European School of Leadership", "latitud": 40.435316, "longitud": -3.678482, "location": {"type": "Point", "coordinates": [40.435316, -3.678482]}}]